[
  {
    "site_id": "MLA",
    "name": "Buenos Aires",
    "latitude": -34.6037,
    "longitude": -58.3816,
    "country": "Argentina",
    "timezone": "America/Argentina/Buenos_Aires"
  },
  {
    "site_id": "MLB",
    "name": "São Paulo",
    "latitude": -23.5505,
    "longitude": -46.6333,
    "country": "Brasil",
    "timezone": "America/Sao_Paulo"
  },
  {
    "site_id": "MLM",
    "name": "Ciudad de México",
    "latitude": 19.4326,
    "longitude": -99.1332,
    "country": "México",
    "timezone": "America/Mexico_City"
  },
  {
    "site_id": "MCO",
    "name": "Bogotá",
    "latitude": 4.711,
    "longitude": -74.0721,
    "country": "Colombia",
    "timezone": "America/Bogota"
  },
  {
    "site_id": "MLC",
    "name": "Santiago",
    "latitude": -33.4489,
    "longitude": -70.6693,
    "country": "Chile",
    "timezone": "America/Santiago"
  },
  {
    "site_id": "MLU",
    "name": "Montevideo",
    "latitude": -34.9011,
    "longitude": -56.1645,
    "country": "Uruguay",
    "timezone": "America/Montevideo"
  },
  {
    "site_id": "MPE",
    "name": "Lima",
    "latitude": -12.0464,
    "longitude": -77.0428,
    "country": "Perú",
    "timezone": "America/Lima"
  }
]